[
    {
        "state": "andhra pradesh",
        "city": "anantapur",
        "lat": "14.4425987",
        "lng": "79.986456"
    },
    {
        "state": "andhra pradesh",
        "city": "chittoor",
        "lat": "14.4425987",
        "lng": "79.986456"
    },
    {
        "state": "andhra pradesh",
        "city": "east godavari",
        "lat": "14.4425987",
        "lng": "79.986456"
    },
    {
        "state": "andhra pradesh",
        "city": "guntur",
        "lat": "14.4425987",
        "lng": "79.986456"
    },
    {
        "state": "andhra pradesh",
        "city": "hyderabad",
        "lat": "14.4425987",
        "lng": "79.986456"
    },
    {
        "state": "andhra pradesh",
        "city": "kadapa",
        "lat": "14.4425987",
        "lng": "79.986456"
    },
    {
        "state": "andhra pradesh",
        "city": "kakinada",
        "lat": "14.4425987",
        "lng": "79.986456"
    },
    {
        "state": "andhra pradesh",
        "city": "khammam",
        "lat": "14.4425987",
        "lng": "79.986456"
    },
    {
        "state": "andhra pradesh",
        "city": "krishna",
        "lat": "14.4425987",
        "lng": "79.986456"
    },
    {
        "state": "andhra pradesh",
        "city": "kurnool",
        "lat": "14.4425987",
        "lng": "79.986456"
    },
    {
        "state": "andhra pradesh",
        "city": "nalgonda",
        "lat": "14.4425987",
        "lng": "79.986456"
    },
    {
        "state": "andhra pradesh",
        "city": "nellore",
        "lat": "14.4425987",
        "lng": "79.986456"
    },
    {
        "state": "andhra pradesh",
        "city": "ongole",
        "lat": "14.4425987",
        "lng": "79.986456"
    },
    {
        "state": "andhra pradesh",
        "city": "prakasam",
        "lat": "14.4425987",
        "lng": "79.986456"
    },
    {
        "state": "andhra pradesh",
        "city": "proddattur",
        "lat": "14.4425987",
        "lng": "79.986456"
    },
    {
        "state": "andhra pradesh",
        "city": "rajahmundry",
        "lat": "14.4425987",
        "lng": "79.986456"
    },
    {
        "state": "andhra pradesh",
        "city": "srikakulam",
        "lat": "14.4425987",
        "lng": "79.986456"
    },
    {
        "state": "andhra pradesh",
        "city": "tirupati",
        "lat": "14.4425987",
        "lng": "79.986456"
    },
    {
        "state": "andhra pradesh",
        "city": "vijayawada",
        "lat": "14.4425987",
        "lng": "79.986456"
    },
    {
        "state": "andhra pradesh",
        "city": "vishakapatnam",
        "lat": "14.4425987",
        "lng": "79.986456"
    },
    {
        "state": "andhra pradesh",
        "city": "vizianagaram",
        "lat": "14.4425987",
        "lng": "79.986456"
    },
    {
        "state": "arunachal pradesh",
        "city": "papum pare",
        "lat": "27.2240654",
        "lng": "93.5003454"
    },
    {
        "state": "assam",
        "city": "barpeta",
        "lat": "25.9410942",
        "lng": "91.2891036"
    },
    {
        "state": "assam",
        "city": "bongaigaon",
        "lat": "25.9410942",
        "lng": "91.2891036"
    },
    {
        "state": "assam",
        "city": "cachar",
        "lat": "25.9410942",
        "lng": "91.2891036"
    },
    {
        "state": "assam",
        "city": "darrang",
        "lat": "25.9410942",
        "lng": "91.2891036"
    },
    {
        "state": "assam",
        "city": "dibrugarh",
        "lat": "25.9410942",
        "lng": "91.2891036"
    },
    {
        "state": "assam",
        "city": "golaghat",
        "lat": "25.9410942",
        "lng": "91.2891036"
    },
    {
        "state": "assam",
        "city": "guwahati",
        "lat": "25.9410942",
        "lng": "91.2891036"
    },
    {
        "state": "assam",
        "city": "jorhat",
        "lat": "25.9410942",
        "lng": "91.2891036"
    },
    {
        "state": "assam",
        "city": "kamrup metropolitian",
        "lat": "25.9410942",
        "lng": "91.2891036"
    },
    {
        "state": "assam",
        "city": "kamrup rural",
        "lat": "25.9410942",
        "lng": "91.2891036"
    },
    {
        "state": "assam",
        "city": "kokrajhar",
        "lat": "25.9410942",
        "lng": "91.2891036"
    },
    {
        "state": "assam",
        "city": "nagaon",
        "lat": "25.9410942",
        "lng": "91.2891036"
    },
    {
        "state": "assam",
        "city": "sibsagar",
        "lat": "25.9410942",
        "lng": "91.2891036"
    },
    {
        "state": "assam",
        "city": "silchar",
        "lat": "25.9410942",
        "lng": "91.2891036"
    },
    {
        "state": "assam",
        "city": "sonitpur",
        "lat": "25.9410942",
        "lng": "91.2891036"
    },
    {
        "state": "assam",
        "city": "tinsukia",
        "lat": "25.9410942",
        "lng": "91.2891036"
    },
    {
        "state": "bihar",
        "city": "araria",
        "lat": "25.5940947",
        "lng": "85.1375645"
    },
    {
        "state": "bihar",
        "city": "banka",
        "lat": "25.5940947",
        "lng": "85.1375645"
    },
    {
        "state": "bihar",
        "city": "begusarai",
        "lat": "25.5940947",
        "lng": "85.1375645"
    },
    {
        "state": "bihar",
        "city": "bhabua",
        "lat": "25.5940947",
        "lng": "85.1375645"
    },
    {
        "state": "bihar",
        "city": "bhagalpur",
        "lat": "25.5940947",
        "lng": "85.1375645"
    },
    {
        "state": "bihar",
        "city": "bhojpur",
        "lat": "25.5940947",
        "lng": "85.1375645"
    },
    {
        "state": "bihar",
        "city": "buxar",
        "lat": "25.5940947",
        "lng": "85.1375645"
    },
    {
        "state": "bihar",
        "city": "chapra",
        "lat": "25.5940947",
        "lng": "85.1375645"
    },
    {
        "state": "bihar",
        "city": "darbhanga",
        "lat": "25.5940947",
        "lng": "85.1375645"
    },
    {
        "state": "bihar",
        "city": "gaya",
        "lat": "25.5940947",
        "lng": "85.1375645"
    },
    {
        "state": "bihar",
        "city": "gopal ganj",
        "lat": "25.5940947",
        "lng": "85.1375645"
    },
    {
        "state": "bihar",
        "city": "hajipur",
        "lat": "25.5940947",
        "lng": "85.1375645"
    },
    {
        "state": "bihar",
        "city": "jahanabad",
        "lat": "25.5940947",
        "lng": "85.1375645"
    },
    {
        "state": "bihar",
        "city": "katihar",
        "lat": "25.5940947",
        "lng": "85.1375645"
    },
    {
        "state": "bihar",
        "city": "kishanganj",
        "lat": "25.5940947",
        "lng": "85.1375645"
    },
    {
        "state": "bihar",
        "city": "madhepura",
        "lat": "25.5940947",
        "lng": "85.1375645"
    },
    {
        "state": "bihar",
        "city": "motihari",
        "lat": "25.5940947",
        "lng": "85.1375645"
    },
    {
        "state": "bihar",
        "city": "munger",
        "lat": "25.5940947",
        "lng": "85.1375645"
    },
    {
        "state": "bihar",
        "city": "muzaffarpur",
        "lat": "25.5940947",
        "lng": "85.1375645"
    },
    {
        "state": "bihar",
        "city": "nalanda",
        "lat": "25.5940947",
        "lng": "85.1375645"
    },
    {
        "state": "bihar",
        "city": "patna",
        "lat": "25.5940947",
        "lng": "85.1375645"
    },
    {
        "state": "bihar",
        "city": "purnia",
        "lat": "25.5940947",
        "lng": "85.1375645"
    },
    {
        "state": "bihar",
        "city": "rohtas",
        "lat": "25.5940947",
        "lng": "85.1375645"
    },
    {
        "state": "bihar",
        "city": "samastipur",
        "lat": "25.5940947",
        "lng": "85.1375645"
    },
    {
        "state": "bihar",
        "city": "saran",
        "lat": "25.5940947",
        "lng": "85.1375645"
    },
    {
        "state": "bihar",
        "city": "siwan",
        "lat": "25.5940947",
        "lng": "85.1375645"
    },
    {
        "state": "bihar",
        "city": "supaul",
        "lat": "25.5940947",
        "lng": "85.1375645"
    },
    {
        "state": "bihar",
        "city": "tirhut",
        "lat": "25.5940947",
        "lng": "85.1375645"
    },
    {
        "state": "bihar",
        "city": "vaishali",
        "lat": "25.5940947",
        "lng": "85.1375645"
    },
    {
        "state": "chandigarh",
        "city": "chandigarh",
        "lat": "30.7333148",
        "lng": "76.7794179"
    },
    {
        "state": "chattisgarh",
        "city": "ambikapur",
        "lat": "23.1294",
        "lng": "83.1861"
    },
    {
        "state": "chattisgarh",
        "city": "balod",
        "lat": "20.7271",
        "lng": "81.2056"
    },
    {
        "state": "chattisgarh",
        "city": "bhilai",
        "lat": "21.1938",
        "lng": "81.3509"
    },
    {
        "state": "chattisgarh",
        "city": "bilaspur",
        "lat": "22.0797",
        "lng": "82.1409"
    },
    {
        "state": "chattisgarh",
        "city": "durg",
        "lat": "21.1904",
        "lng": "81.2849"
    },
    {
        "state": "chattisgarh",
        "city": "jagdalpur",
        "lat": "19.0861",
        "lng": "82.0188"
    },
    {
        "state": "chattisgarh",
        "city": "korba",
        "lat": "22.3595",
        "lng": "82.7501"
    },
    {
        "state": "chattisgarh",
        "city": "koriya",
        "lat": "23.3875",
        "lng": "82.3886"
    },
    {
        "state": "chattisgarh",
        "city": "raigarh",
        "lat": "21.8974",
        "lng": "83.3950"
    },
    {
        "state": "chattisgarh",
        "city": "raipur",
        "lat": "21.2514",
        "lng": "81.6296"
    },
    {
        "state": "chattisgarh",
        "city": "surguja",
        "lat": "22.9494",
        "lng": "83.1649"
    },
    {
        "state": "dadra & nagar haveli",
        "city": "dadra & nagar haveli",
        "lat": "20.1809",
        "lng": "73.0169"
    },
    {
        "state": "dadra & nagar haveli",
        "city": "silvassa",
        "lat": "20.2753",
        "lng": "73.0073"
    },
    {
        "state": "daman and diu",
        "city": "daman",
        "lat": "20.3974",
        "lng": "72.8328"
    },
    {
        "state": "delhi",
        "city": "delhi",
        "lat": "28.7040592",
        "lng": "77.1024902"
    },
    {
        "state": "delhi",
        "city": "kirti nagar",
        "lat": "28.7040592",
        "lng": "77.1024902"
    },
    {
        "state": "delhi",
        "city": "okhla",
        "lat": "28.7040592",
        "lng": "77.1024902"
    },
    {
        "state": "delhi",
        "city": "sant nagar",
        "lat": "28.7040592",
        "lng": "77.1024902"
    },
    {
        "state": "goa",
        "city": "mapusa",
        "lat": "15.11766",
        "lng": "74.123996"
    },
    {
        "state": "goa",
        "city": "margao",
        "lat": "15.11766",
        "lng": "74.123996"
    },
    {
        "state": "goa",
        "city": "north goa",
        "lat": "15.11766",
        "lng": "74.123996"
    },
    {
        "state": "goa",
        "city": "panaji",
        "lat": "15.11766",
        "lng": "74.123996"
    },
    {
        "state": "goa",
        "city": "ponda",
        "lat": "15.11766",
        "lng": "74.123996"
    },
    {
        "state": "goa",
        "city": "south goa",
        "lat": "15.11766",
        "lng": "74.123996"
    },
    {
        "state": "gujarat",
        "city": "adalaj ahmedabad",
        "lat": "22.3071588",
        "lng": "73.1812187"
    },
    {
        "state": "gujarat",
        "city": "ahmedabad",
        "lat": "22.3071588",
        "lng": "73.1812187"
    },
    {
        "state": "gujarat",
        "city": "amreli",
        "lat": "22.3071588",
        "lng": "73.1812187"
    },
    {
        "state": "gujarat",
        "city": "anand",
        "lat": "22.3071588",
        "lng": "73.1812187"
    },
    {
        "state": "gujarat",
        "city": "anjar",
        "lat": "22.3071588",
        "lng": "73.1812187"
    },
    {
        "state": "gujarat",
        "city": "ankleshwar",
        "lat": "22.3071588",
        "lng": "73.1812187"
    },
    {
        "state": "gujarat",
        "city": "banaskantha",
        "lat": "22.3071588",
        "lng": "73.1812187"
    },
    {
        "state": "gujarat",
        "city": "bardoli",
        "lat": "22.3071588",
        "lng": "73.1812187"
    },
    {
        "state": "gujarat",
        "city": "baroda",
        "lat": "22.3071588",
        "lng": "73.1812187"
    },
    {
        "state": "gujarat",
        "city": "bhadaj",
        "lat": "22.3071588",
        "lng": "73.1812187"
    },
    {
        "state": "gujarat",
        "city": "bharuch",
        "lat": "22.3071588",
        "lng": "73.1812187"
    },
    {
        "state": "gujarat",
        "city": "bhavnagar",
        "lat": "22.3071588",
        "lng": "73.1812187"
    },
    {
        "state": "gujarat",
        "city": "bhuj",
        "lat": "22.3071588",
        "lng": "73.1812187"
    },
    {
        "state": "gujarat",
        "city": "borsad",
        "lat": "22.3071588",
        "lng": "73.1812187"
    },
    {
        "state": "gujarat",
        "city": "dahod",
        "lat": "22.3071588",
        "lng": "73.1812187"
    },
    {
        "state": "gujarat",
        "city": "deesa",
        "lat": "22.3071588",
        "lng": "73.1812187"
    },
    {
        "state": "gujarat",
        "city": "dhoraji",
        "lat": "22.3071588",
        "lng": "73.1812187"
    },
    {
        "state": "gujarat",
        "city": "dwarka",
        "lat": "22.3071588",
        "lng": "73.1812187"
    },
    {
        "state": "gujarat",
        "city": "gandhidham",
        "lat": "22.3071588",
        "lng": "73.1812187"
    },
    {
        "state": "gujarat",
        "city": "gandhinagar",
        "lat": "22.3071588",
        "lng": "73.1812187"
    },
    {
        "state": "gujarat",
        "city": "godhra",
        "lat": "22.3071588",
        "lng": "73.1812187"
    },
    {
        "state": "gujarat",
        "city": "himatnagar",
        "lat": "22.3071588",
        "lng": "73.1812187"
    },
    {
        "state": "gujarat",
        "city": "idar",
        "lat": "22.3071588",
        "lng": "73.1812187"
    },
    {
        "state": "gujarat",
        "city": "jamnagar",
        "lat": "22.3071588",
        "lng": "73.1812187"
    },
    {
        "state": "gujarat",
        "city": "jetpur",
        "lat": "22.3071588",
        "lng": "73.1812187"
    },
    {
        "state": "gujarat",
        "city": "junagadh",
        "lat": "22.3071588",
        "lng": "73.1812187"
    },
    {
        "state": "gujarat",
        "city": "kachchh",
        "lat": "22.3071588",
        "lng": "73.1812187"
    },
    {
        "state": "gujarat",
        "city": "kadi",
        "lat": "22.3071588",
        "lng": "73.1812187"
    },
    {
        "state": "gujarat",
        "city": "kalol",
        "lat": "22.3071588",
        "lng": "73.1812187"
    },
    {
        "state": "gujarat",
        "city": "kapadwanj",
        "lat": "22.3071588",
        "lng": "73.1812187"
    },
    {
        "state": "gujarat",
        "city": "kutch",
        "lat": "22.3071588",
        "lng": "73.1812187"
    },
    {
        "state": "gujarat",
        "city": "mehsana",
        "lat": "22.3071588",
        "lng": "73.1812187"
    },
    {
        "state": "gujarat",
        "city": "modasa",
        "lat": "22.3071588",
        "lng": "73.1812187"
    },
    {
        "state": "gujarat",
        "city": "morbi",
        "lat": "22.3071588",
        "lng": "73.1812187"
    },
    {
        "state": "gujarat",
        "city": "morvi",
        "lat": "22.3071588",
        "lng": "73.1812187"
    },
    {
        "state": "gujarat",
        "city": "nadiad",
        "lat": "22.3071588",
        "lng": "73.1812187"
    },
    {
        "state": "gujarat",
        "city": "navsari",
        "lat": "22.3071588",
        "lng": "73.1812187"
    },
    {
        "state": "gujarat",
        "city": "palanpur",
        "lat": "22.3071588",
        "lng": "73.1812187"
    },
    {
        "state": "gujarat",
        "city": "panch mahals",
        "lat": "22.3071588",
        "lng": "73.1812187"
    },
    {
        "state": "gujarat",
        "city": "patan",
        "lat": "22.3071588",
        "lng": "73.1812187"
    },
    {
        "state": "gujarat",
        "city": "rajkot",
        "lat": "22.3071588",
        "lng": "73.1812187"
    },
    {
        "state": "gujarat",
        "city": "sabarkantha",
        "lat": "22.3071588",
        "lng": "73.1812187"
    },
    {
        "state": "gujarat",
        "city": "sanand",
        "lat": "22.3071588",
        "lng": "73.1812187"
    },
    {
        "state": "gujarat",
        "city": "savar kundla",
        "lat": "22.3071588",
        "lng": "73.1812187"
    },
    {
        "state": "gujarat",
        "city": "sidhpur",
        "lat": "22.3071588",
        "lng": "73.1812187"
    },
    {
        "state": "gujarat",
        "city": "silvasa",
        "lat": "22.3071588",
        "lng": "73.1812187"
    },
    {
        "state": "gujarat",
        "city": "surat",
        "lat": "22.3071588",
        "lng": "73.1812187"
    },
    {
        "state": "gujarat",
        "city": "surendranagar",
        "lat": "22.3071588",
        "lng": "73.1812187"
    },
    {
        "state": "gujarat",
        "city": "vadali",
        "lat": "22.3071588",
        "lng": "73.1812187"
    },
    {
        "state": "gujarat",
        "city": "vadodara",
        "lat": "22.3071588",
        "lng": "73.1812187"
    },
    {
        "state": "gujarat",
        "city": "valsad",
        "lat": "22.3071588",
        "lng": "73.1812187"
    },
    {
        "state": "gujarat",
        "city": "vapi",
        "lat": "22.3071588",
        "lng": "73.1812187"
    },
    {
        "state": "gujarat",
        "city": "vyara",
        "lat": "22.3071588",
        "lng": "73.1812187"
    },
    {
        "state": "haryana",
        "city": "ambala",
        "lat": "28.4594965",
        "lng": "77.0266383"
    },
    {
        "state": "haryana",
        "city": "badshahpur",
        "lat": "28.4594965",
        "lng": "77.0266383"
    },
    {
        "state": "haryana",
        "city": "bahadurgarh",
        "lat": "28.4594965",
        "lng": "77.0266383"
    },
    {
        "state": "haryana",
        "city": "bhiwani",
        "lat": "28.4594965",
        "lng": "77.0266383"
    },
    {
        "state": "haryana",
        "city": "charkhi dadri",
        "lat": "28.4594965",
        "lng": "77.0266383"
    },
    {
        "state": "haryana",
        "city": "faridabad",
        "lat": "28.4594965",
        "lng": "77.0266383"
    },
    {
        "state": "haryana",
        "city": "fatehabad",
        "lat": "28.4594965",
        "lng": "77.0266383"
    },
    {
        "state": "haryana",
        "city": "gurgaon",
        "lat": "28.4594965",
        "lng": "77.0266383"
    },
    {
        "state": "haryana",
        "city": "hisar",
        "lat": "28.4594965",
        "lng": "77.0266383"
    },
    {
        "state": "haryana",
        "city": "jhajjar",
        "lat": "28.4594965",
        "lng": "77.0266383"
    },
    {
        "state": "haryana",
        "city": "jind",
        "lat": "28.4594965",
        "lng": "77.0266383"
    },
    {
        "state": "haryana",
        "city": "kaithal",
        "lat": "28.4594965",
        "lng": "77.0266383"
    },
    {
        "state": "haryana",
        "city": "karnal",
        "lat": "28.4594965",
        "lng": "77.0266383"
    },
    {
        "state": "haryana",
        "city": "kurukshetra",
        "lat": "28.4594965",
        "lng": "77.0266383"
    },
    {
        "state": "haryana",
        "city": "mahendragarh",
        "lat": "28.4594965",
        "lng": "77.0266383"
    },
    {
        "state": "haryana",
        "city": "mewat",
        "lat": "28.4594965",
        "lng": "77.0266383"
    },
    {
        "state": "haryana",
        "city": "palwal",
        "lat": "28.4594965",
        "lng": "77.0266383"
    },
    {
        "state": "haryana",
        "city": "panchkula",
        "lat": "28.4594965",
        "lng": "77.0266383"
    },
    {
        "state": "haryana",
        "city": "panipat",
        "lat": "28.4594965",
        "lng": "77.0266383"
    },
    {
        "state": "haryana",
        "city": "rewari",
        "lat": "28.4594965",
        "lng": "77.0266383"
    },
    {
        "state": "haryana",
        "city": "rohtak",
        "lat": "28.4594965",
        "lng": "77.0266383"
    },
    {
        "state": "haryana",
        "city": "sirsa",
        "lat": "28.4594965",
        "lng": "77.0266383"
    },
    {
        "state": "haryana",
        "city": "sonipat",
        "lat": "28.4594965",
        "lng": "77.0266383"
    },
    {
        "state": "haryana",
        "city": "yamuna nagar",
        "lat": "28.4594965",
        "lng": "77.0266383"
    },
    {
        "state": "himachal pradesh",
        "city": "chamba",
        "lat": "31.1048145",
        "lng": "77.1734033"
    },
    {
        "state": "himachal pradesh",
        "city": "hamirpur",
        "lat": "31.1048145",
        "lng": "77.1734033"
    },
    {
        "state": "himachal pradesh",
        "city": "kangra",
        "lat": "31.1048145",
        "lng": "77.1734033"
    },
    {
        "state": "himachal pradesh",
        "city": "kullu",
        "lat": "31.1048145",
        "lng": "77.1734033"
    },
    {
        "state": "himachal pradesh",
        "city": "mandi",
        "lat": "31.1048145",
        "lng": "77.1734033"
    },
    {
        "state": "himachal pradesh",
        "city": "shimla",
        "lat": "31.1048145",
        "lng": "77.1734033"
    },
    {
        "state": "himachal pradesh",
        "city": "sirmaur",
        "lat": "31.1048145",
        "lng": "77.1734033"
    },
    {
        "state": "himachal pradesh",
        "city": "solan",
        "lat": "31.1048145",
        "lng": "77.1734033"
    },
    {
        "state": "himachal pradesh",
        "city": "una",
        "lat": "31.1048145",
        "lng": "77.1734033"
    },
    {
        "state": "jammu & kashmir",
        "city": "anantnag",
        "lat": "32.7266016",
        "lng": "74.8570259"
    },
    {
        "state": "jammu & kashmir",
        "city": "baramulla",
        "lat": "32.7266016",
        "lng": "74.8570259"
    },
    {
        "state": "jammu & kashmir",
        "city": "budgam",
        "lat": "32.7266016",
        "lng": "74.8570259"
    },
    {
        "state": "jammu & kashmir",
        "city": "jammu",
        "lat": "32.7266016",
        "lng": "74.8570259"
    },
    {
        "state": "jammu & kashmir",
        "city": "kathua",
        "lat": "32.7266016",
        "lng": "74.8570259"
    },
    {
        "state": "jammu & kashmir",
        "city": "kulgam",
        "lat": "32.7266016",
        "lng": "74.8570259"
    },
    {
        "state": "jammu & kashmir",
        "city": "pulwama",
        "lat": "32.7266016",
        "lng": "74.8570259"
    },
    {
        "state": "jammu & kashmir",
        "city": "samba",
        "lat": "32.7266016",
        "lng": "74.8570259"
    },
    {
        "state": "jammu & kashmir",
        "city": "srinagar",
        "lat": "32.7266016",
        "lng": "74.8570259"
    },
    {
        "state": "jammu & kashmir",
        "city": "udhampur",
        "lat": "32.7266016",
        "lng": "74.8570259"
    },
    {
        "state": "jharkhand",
        "city": "bokaro",
        "lat": "23.3440997",
        "lng": "85.309562"
    },
    {
        "state": "jharkhand",
        "city": "deoghar",
        "lat": "23.3440997",
        "lng": "85.309562"
    },
    {
        "state": "jharkhand",
        "city": "dhanbad",
        "lat": "23.3440997",
        "lng": "85.309562"
    },
    {
        "state": "jharkhand",
        "city": "dumka",
        "lat": "23.3440997",
        "lng": "85.309562"
    },
    {
        "state": "jharkhand",
        "city": "east singhbhum",
        "lat": "23.3440997",
        "lng": "85.309562"
    },
    {
        "state": "jharkhand",
        "city": "garhwa",
        "lat": "23.3440997",
        "lng": "85.309562"
    },
    {
        "state": "jharkhand",
        "city": "gumla",
        "lat": "23.3440997",
        "lng": "85.309562"
    },
    {
        "state": "jharkhand",
        "city": "hazaribagh",
        "lat": "23.3440997",
        "lng": "85.309562"
    },
    {
        "state": "jharkhand",
        "city": "jamshedpur",
        "lat": "23.3440997",
        "lng": "85.309562"
    },
    {
        "state": "jharkhand",
        "city": "koderma",
        "lat": "23.3440997",
        "lng": "85.309562"
    },
    {
        "state": "jharkhand",
        "city": "palamu",
        "lat": "23.3440997",
        "lng": "85.309562"
    },
    {
        "state": "jharkhand",
        "city": "ramgarh",
        "lat": "23.3440997",
        "lng": "85.309562"
    },
    {
        "state": "jharkhand",
        "city": "ranchi",
        "lat": "23.3440997",
        "lng": "85.309562"
    },
    {
        "state": "jharkhand",
        "city": "seraikela kharsawan",
        "lat": "23.3440997",
        "lng": "85.309562"
    },
    {
        "state": "karnataka",
        "city": "bagalkote",
        "lat": "12.9715987",
        "lng": "77.5945627"
    },
    {
        "state": "karnataka",
        "city": "ballari",
        "lat": "12.9715987",
        "lng": "77.5945627"
    },
    {
        "state": "karnataka",
        "city": "belagavi",
        "lat": "12.9715987",
        "lng": "77.5945627"
    },
    {
        "state": "karnataka",
        "city": "belgaum",
        "lat": "12.9715987",
        "lng": "77.5945627"
    },
    {
        "state": "karnataka",
        "city": "bellary",
        "lat": "12.9715987",
        "lng": "77.5945627"
    },
    {
        "state": "karnataka",
        "city": "bengaluru",
        "lat": "12.9715987",
        "lng": "77.5945627"
    },
    {
        "state": "karnataka",
        "city": "bidar",
        "lat": "12.9715987",
        "lng": "77.5945627"
    },
    {
        "state": "karnataka",
        "city": "bijapur",
        "lat": "12.9715987",
        "lng": "77.5945627"
    },
    {
        "state": "karnataka",
        "city": "chikkamagaluru",
        "lat": "12.9715987",
        "lng": "77.5945627"
    },
    {
        "state": "karnataka",
        "city": "chitradurga",
        "lat": "12.9715987",
        "lng": "77.5945627"
    },
    {
        "state": "karnataka",
        "city": "davanagere",
        "lat": "12.9715987",
        "lng": "77.5945627"
    },
    {
        "state": "karnataka",
        "city": "dharwad",
        "lat": "12.9715987",
        "lng": "77.5945627"
    },
    {
        "state": "karnataka",
        "city": "gadag",
        "lat": "12.9715987",
        "lng": "77.5945627"
    },
    {
        "state": "karnataka",
        "city": "gulbarga",
        "lat": "12.9715987",
        "lng": "77.5945627"
    },
    {
        "state": "karnataka",
        "city": "hassan",
        "lat": "12.9715987",
        "lng": "77.5945627"
    },
    {
        "state": "karnataka",
        "city": "hospet",
        "lat": "12.9715987",
        "lng": "77.5945627"
    },
    {
        "state": "karnataka",
        "city": "hubli",
        "lat": "12.9715987",
        "lng": "77.5945627"
    },
    {
        "state": "karnataka",
        "city": "kodagu",
        "lat": "12.9715987",
        "lng": "77.5945627"
    },
    {
        "state": "karnataka",
        "city": "kolar",
        "lat": "12.9715987",
        "lng": "77.5945627"
    },
    {
        "state": "karnataka",
        "city": "koppal",
        "lat": "12.9715987",
        "lng": "77.5945627"
    },
    {
        "state": "karnataka",
        "city": "mandya",
        "lat": "12.9715987",
        "lng": "77.5945627"
    },
    {
        "state": "karnataka",
        "city": "mangalore",
        "lat": "12.9715987",
        "lng": "77.5945627"
    },
    {
        "state": "karnataka",
        "city": "mysore",
        "lat": "12.9715987",
        "lng": "77.5945627"
    },
    {
        "state": "karnataka",
        "city": "raichur",
        "lat": "12.9715987",
        "lng": "77.5945627"
    },
    {
        "state": "karnataka",
        "city": "shimoga",
        "lat": "12.9715987",
        "lng": "77.5945627"
    },
    {
        "state": "karnataka",
        "city": "tumkur",
        "lat": "12.9715987",
        "lng": "77.5945627"
    },
    {
        "state": "karnataka",
        "city": "udupi",
        "lat": "12.9715987",
        "lng": "77.5945627"
    },
    {
        "state": "kerala",
        "city": "alappuzha",
        "lat": "9.5915668",
        "lng": "76.5221531"
    },
    {
        "state": "kerala",
        "city": "alleppey",
        "lat": "9.5915668",
        "lng": "76.5221531"
    },
    {
        "state": "kerala",
        "city": "calicut",
        "lat": "9.5915668",
        "lng": "76.5221531"
    },
    {
        "state": "kerala",
        "city": "cochin",
        "lat": "9.5915668",
        "lng": "76.5221531"
    },
    {
        "state": "kerala",
        "city": "ernakulam",
        "lat": "9.5915668",
        "lng": "76.5221531"
    },
    {
        "state": "kerala",
        "city": "idukki",
        "lat": "9.5915668",
        "lng": "76.5221531"
    },
    {
        "state": "kerala",
        "city": "kannur",
        "lat": "9.5915668",
        "lng": "76.5221531"
    },
    {
        "state": "kerala",
        "city": "kasaragod",
        "lat": "9.5915668",
        "lng": "76.5221531"
    },
    {
        "state": "kerala",
        "city": "kochi",
        "lat": "9.5915668",
        "lng": "76.5221531"
    },
    {
        "state": "kerala",
        "city": "kollam",
        "lat": "9.5915668",
        "lng": "76.5221531"
    },
    {
        "state": "kerala",
        "city": "kottayam",
        "lat": "9.5915668",
        "lng": "76.5221531"
    },
    {
        "state": "kerala",
        "city": "kozhikode",
        "lat": "9.5915668",
        "lng": "76.5221531"
    },
    {
        "state": "kerala",
        "city": "kunnamkulam",
        "lat": "9.5915668",
        "lng": "76.5221531"
    },
    {
        "state": "kerala",
        "city": "malappuram",
        "lat": "9.5915668",
        "lng": "76.5221531"
    },
    {
        "state": "kerala",
        "city": "palakkad",
        "lat": "9.5915668",
        "lng": "76.5221531"
    },
    {
        "state": "kerala",
        "city": "pathanamthitta",
        "lat": "9.5915668",
        "lng": "76.5221531"
    },
    {
        "state": "kerala",
        "city": "thiruvalla",
        "lat": "9.5915668",
        "lng": "76.5221531"
    },
    {
        "state": "kerala",
        "city": "thiruvananthapuram",
        "lat": "9.5915668",
        "lng": "76.5221531"
    },
    {
        "state": "kerala",
        "city": "thrissur",
        "lat": "9.5915668",
        "lng": "76.5221531"
    },
    {
        "state": "kerala",
        "city": "trissur",
        "lat": "9.5915668",
        "lng": "76.5221531"
    },
    {
        "state": "kerala",
        "city": "trivandrum",
        "lat": "9.5915668",
        "lng": "76.5221531"
    },
    {
        "state": "kerala",
        "city": "wayanad",
        "lat": "9.5915668",
        "lng": "76.5221531"
    },
    {
        "state": "madhya pradesh",
        "city": "badnawar",
        "lat": "22.7195687",
        "lng": "75.8577258"
    },
    {
        "state": "madhya pradesh",
        "city": "balaghat",
        "lat": "22.7195687",
        "lng": "75.8577258"
    },
    {
        "state": "madhya pradesh",
        "city": "barwani",
        "lat": "22.7195687",
        "lng": "75.8577258"
    },
    {
        "state": "madhya pradesh",
        "city": "betul",
        "lat": "22.7195687",
        "lng": "75.8577258"
    },
    {
        "state": "madhya pradesh",
        "city": "bhind",
        "lat": "22.7195687",
        "lng": "75.8577258"
    },
    {
        "state": "madhya pradesh",
        "city": "bhopal",
        "lat": "22.7195687",
        "lng": "75.8577258"
    },
    {
        "state": "madhya pradesh",
        "city": "chhatarpur",
        "lat": "22.7195687",
        "lng": "75.8577258"
    },
    {
        "state": "madhya pradesh",
        "city": "chhindwara",
        "lat": "22.7195687",
        "lng": "75.8577258"
    },
    {
        "state": "madhya pradesh",
        "city": "chindwara",
        "lat": "22.7195687",
        "lng": "75.8577258"
    },
    {
        "state": "madhya pradesh",
        "city": "damoh",
        "lat": "22.7195687",
        "lng": "75.8577258"
    },
    {
        "state": "madhya pradesh",
        "city": "dewas",
        "lat": "22.7195687",
        "lng": "75.8577258"
    },
    {
        "state": "madhya pradesh",
        "city": "dhar",
        "lat": "22.7195687",
        "lng": "75.8577258"
    },
    {
        "state": "madhya pradesh",
        "city": "gadarwara",
        "lat": "22.7195687",
        "lng": "75.8577258"
    },
    {
        "state": "madhya pradesh",
        "city": "guna",
        "lat": "22.7195687",
        "lng": "75.8577258"
    },
    {
        "state": "madhya pradesh",
        "city": "gwalior",
        "lat": "22.7195687",
        "lng": "75.8577258"
    },
    {
        "state": "madhya pradesh",
        "city": "harda",
        "lat": "22.7195687",
        "lng": "75.8577258"
    },
    {
        "state": "madhya pradesh",
        "city": "hoshangabad",
        "lat": "22.7195687",
        "lng": "75.8577258"
    },
    {
        "state": "madhya pradesh",
        "city": "indore",
        "lat": "22.7195687",
        "lng": "75.8577258"
    },
    {
        "state": "madhya pradesh",
        "city": "jabalpur",
        "lat": "22.7195687",
        "lng": "75.8577258"
    },
    {
        "state": "madhya pradesh",
        "city": "jhabua",
        "lat": "22.7195687",
        "lng": "75.8577258"
    },
    {
        "state": "madhya pradesh",
        "city": "katni",
        "lat": "22.7195687",
        "lng": "75.8577258"
    },
    {
        "state": "madhya pradesh",
        "city": "khandwa",
        "lat": "22.7195687",
        "lng": "75.8577258"
    },
    {
        "state": "madhya pradesh",
        "city": "khargone",
        "lat": "22.7195687",
        "lng": "75.8577258"
    },
    {
        "state": "madhya pradesh",
        "city": "lakhnadon",
        "lat": "22.7195687",
        "lng": "75.8577258"
    },
    {
        "state": "madhya pradesh",
        "city": "malwa",
        "lat": "22.7195687",
        "lng": "75.8577258"
    },
    {
        "state": "madhya pradesh",
        "city": "mandsaur",
        "lat": "22.7195687",
        "lng": "75.8577258"
    },
    {
        "state": "madhya pradesh",
        "city": "mhow",
        "lat": "22.7195687",
        "lng": "75.8577258"
    },
    {
        "state": "madhya pradesh",
        "city": "morena",
        "lat": "22.7195687",
        "lng": "75.8577258"
    },
    {
        "state": "madhya pradesh",
        "city": "nalkheda",
        "lat": "22.7195687",
        "lng": "75.8577258"
    },
    {
        "state": "madhya pradesh",
        "city": "narsinghpur",
        "lat": "22.7195687",
        "lng": "75.8577258"
    },
    {
        "state": "madhya pradesh",
        "city": "neemuch",
        "lat": "22.7195687",
        "lng": "75.8577258"
    },
    {
        "state": "madhya pradesh",
        "city": "raisen",
        "lat": "22.7195687",
        "lng": "75.8577258"
    },
    {
        "state": "madhya pradesh",
        "city": "rajgarh",
        "lat": "22.7195687",
        "lng": "75.8577258"
    },
    {
        "state": "madhya pradesh",
        "city": "ratlam",
        "lat": "22.7195687",
        "lng": "75.8577258"
    },
    {
        "state": "madhya pradesh",
        "city": "rewa",
        "lat": "22.7195687",
        "lng": "75.8577258"
    },
    {
        "state": "madhya pradesh",
        "city": "sagar",
        "lat": "22.7195687",
        "lng": "75.8577258"
    },
    {
        "state": "madhya pradesh",
        "city": "sanawad",
        "lat": "22.7195687",
        "lng": "75.8577258"
    },
    {
        "state": "madhya pradesh",
        "city": "satna",
        "lat": "22.7195687",
        "lng": "75.8577258"
    },
    {
        "state": "madhya pradesh",
        "city": "sehore",
        "lat": "22.7195687",
        "lng": "75.8577258"
    },
    {
        "state": "madhya pradesh",
        "city": "shahdol",
        "lat": "22.7195687",
        "lng": "75.8577258"
    },
    {
        "state": "madhya pradesh",
        "city": "shajapur",
        "lat": "22.7195687",
        "lng": "75.8577258"
    },
    {
        "state": "madhya pradesh",
        "city": "sheopur",
        "lat": "22.7195687",
        "lng": "75.8577258"
    },
    {
        "state": "madhya pradesh",
        "city": "shivpuri",
        "lat": "22.7195687",
        "lng": "75.8577258"
    },
    {
        "state": "madhya pradesh",
        "city": "sidhi",
        "lat": "22.7195687",
        "lng": "75.8577258"
    },
    {
        "state": "madhya pradesh",
        "city": "tikamgarh",
        "lat": "22.7195687",
        "lng": "75.8577258"
    },
    {
        "state": "madhya pradesh",
        "city": "ujjain",
        "lat": "22.7195687",
        "lng": "75.8577258"
    },
    {
        "state": "madhya pradesh",
        "city": "umaria",
        "lat": "22.7195687",
        "lng": "75.8577258"
    },
    {
        "state": "madhya pradesh",
        "city": "vidisha",
        "lat": "22.7195687",
        "lng": "75.8577258"
    },
    {
        "state": "madhya pradesh",
        "city": "waidhan",
        "lat": "22.7195687",
        "lng": "75.8577258"
    },
    {
        "state": "madhya pradesh",
        "city": "west nimar",
        "lat": "22.7195687",
        "lng": "75.8577258"
    },
    {
        "state": "madhya pradesh",
        "city": "alibaug",
        "lat": "22.7195687",
        "lng": "75.8577258"
    },
    {
        "state": "maharashtra",
        "city": "ahmednagar",
        "lat": "17.6599188",
        "lng": "75.9063906"
    },
    {
        "state": "maharashtra",
        "city": "airoli",
        "lat": "17.6599188",
        "lng": "75.9063906"
    },
    {
        "state": "maharashtra",
        "city": "akola",
        "lat": "17.6599188",
        "lng": "75.9063906"
    },
    {
        "state": "maharashtra",
        "city": "amravati",
        "lat": "17.6599188",
        "lng": "75.9063906"
    },
    {
        "state": "maharashtra",
        "city": "aurangabad",
        "lat": "17.6599188",
        "lng": "75.9063906"
    },
    {
        "state": "maharashtra",
        "city": "badlapur",
        "lat": "17.6599188",
        "lng": "75.9063906"
    },
    {
        "state": "maharashtra",
        "city": "baramati",
        "lat": "17.6599188",
        "lng": "75.9063906"
    },
    {
        "state": "maharashtra",
        "city": "beed",
        "lat": "17.6599188",
        "lng": "75.9063906"
    },
    {
        "state": "maharashtra",
        "city": "buldana",
        "lat": "17.6599188",
        "lng": "75.9063906"
    },
    {
        "state": "maharashtra",
        "city": "buldhana",
        "lat": "17.6599188",
        "lng": "75.9063906"
    },
    {
        "state": "maharashtra",
        "city": "chandrapur",
        "lat": "17.6599188",
        "lng": "75.9063906"
    },
    {
        "state": "maharashtra",
        "city": "chinchwad",
        "lat": "17.6599188",
        "lng": "75.9063906"
    },
    {
        "state": "maharashtra",
        "city": "dhule",
        "lat": "17.6599188",
        "lng": "75.9063906"
    },
    {
        "state": "maharashtra",
        "city": "dombivali",
        "lat": "17.6599188",
        "lng": "75.9063906"
    },
    {
        "state": "maharashtra",
        "city": "dombivli",
        "lat": "17.6599188",
        "lng": "75.9063906"
    },
    {
        "state": "maharashtra",
        "city": "hingoli",
        "lat": "17.6599188",
        "lng": "75.9063906"
    },
    {
        "state": "maharashtra",
        "city": "ichalkaranji",
        "lat": "17.6599188",
        "lng": "75.9063906"
    },
    {
        "state": "maharashtra",
        "city": "jalgaon",
        "lat": "17.6599188",
        "lng": "75.9063906"
    },
    {
        "state": "maharashtra",
        "city": "jalna",
        "lat": "17.6599188",
        "lng": "75.9063906"
    },
    {
        "state": "maharashtra",
        "city": "kalyan",
        "lat": "17.6599188",
        "lng": "75.9063906"
    },
    {
        "state": "maharashtra",
        "city": "kankavli",
        "lat": "17.6599188",
        "lng": "75.9063906"
    },
    {
        "state": "maharashtra",
        "city": "karad",
        "lat": "17.6599188",
        "lng": "75.9063906"
    },
    {
        "state": "maharashtra",
        "city": "karjat",
        "lat": "17.6599188",
        "lng": "75.9063906"
    },
    {
        "state": "maharashtra",
        "city": "kolhapur",
        "lat": "17.6599188",
        "lng": "75.9063906"
    },
    {
        "state": "maharashtra",
        "city": "kurla",
        "lat": "17.6599188",
        "lng": "75.9063906"
    },
    {
        "state": "maharashtra",
        "city": "latur",
        "lat": "17.6599188",
        "lng": "75.9063906"
    },
    {
        "state": "maharashtra",
        "city": "malegaon",
        "lat": "17.6599188",
        "lng": "75.9063906"
    },
    {
        "state": "maharashtra",
        "city": "mangaon",
        "lat": "17.6599188",
        "lng": "75.9063906"
    },
    {
        "state": "maharashtra",
        "city": "mumbai",
        "lat": "17.6599188",
        "lng": "75.9063906"
    },
    {
        "state": "maharashtra",
        "city": "kalyan",
        "lat": "17.6599188",
        "lng": "75.9063906"
    },
    {
        "state": "maharashtra",
        "city": "malad",
        "lat": "17.6599188",
        "lng": "75.9063906"
    },
    {
        "state": "maharashtra",
        "city": "vashi",
        "lat": "17.6599188",
        "lng": "75.9063906"
    },
    {
        "state": "maharashtra",
        "city": "nagpur",
        "lat": "17.6599188",
        "lng": "75.9063906"
    },
    {
        "state": "maharashtra",
        "city": "nanded",
        "lat": "17.6599188",
        "lng": "75.9063906"
    },
    {
        "state": "maharashtra",
        "city": "nashik",
        "lat": "17.6599188",
        "lng": "75.9063906"
    },
    {
        "state": "maharashtra",
        "city": "navi mumbai",
        "lat": "17.6599188",
        "lng": "75.9063906"
    },
    {
        "state": "maharashtra",
        "city": "osmanabad",
        "lat": "17.6599188",
        "lng": "75.9063906"
    },
    {
        "state": "maharashtra",
        "city": "palghar",
        "lat": "17.6599188",
        "lng": "75.9063906"
    },
    {
        "state": "maharashtra",
        "city": "panvel",
        "lat": "17.6599188",
        "lng": "75.9063906"
    },
    {
        "state": "maharashtra",
        "city": "parbhani",
        "lat": "17.6599188",
        "lng": "75.9063906"
    },
    {
        "state": "maharashtra",
        "city": "pune",
        "lat": "17.6599188",
        "lng": "75.9063906"
    },
    {
        "state": "maharashtra",
        "city": "rahatni",
        "lat": "17.6599188",
        "lng": "75.9063906"
    },
    {
        "state": "maharashtra",
        "city": "raigad",
        "lat": "17.6599188",
        "lng": "75.9063906"
    },
    {
        "state": "maharashtra",
        "city": "ratnagiri",
        "lat": "17.6599188",
        "lng": "75.9063906"
    },
    {
        "state": "maharashtra",
        "city": "sangamner",
        "lat": "17.6599188",
        "lng": "75.9063906"
    },
    {
        "state": "maharashtra",
        "city": "sangli",
        "lat": "17.6599188",
        "lng": "75.9063906"
    },
    {
        "state": "maharashtra",
        "city": "sant ravidas nagar",
        "lat": "17.6599188",
        "lng": "75.9063906"
    },
    {
        "state": "maharashtra",
        "city": "saoner",
        "lat": "17.6599188",
        "lng": "75.9063906"
    },
    {
        "state": "maharashtra",
        "city": "satara",
        "lat": "17.6599188",
        "lng": "75.9063906"
    },
    {
        "state": "maharashtra",
        "city": "sindhudurg",
        "lat": "17.6599188",
        "lng": "75.9063906"
    },
    {
        "state": "maharashtra",
        "city": "solapur",
        "lat": "17.6599188",
        "lng": "75.9063906"
    },
    {
        "state": "maharashtra",
        "city": "thane",
        "lat": "17.6599188",
        "lng": "75.9063906"
    },
    {
        "state": "maharashtra",
        "city": "udgir",
        "lat": "17.6599188",
        "lng": "75.9063906"
    },
    {
        "state": "maharashtra",
        "city": "ulhasnagar",
        "lat": "17.6599188",
        "lng": "75.9063906"
    },
    {
        "state": "maharashtra",
        "city": "vasai",
        "lat": "17.6599188",
        "lng": "75.9063906"
    },
    {
        "state": "maharashtra",
        "city": "wadkkhal",
        "lat": "17.6599188",
        "lng": "75.9063906"
    },
    {
        "state": "maharashtra",
        "city": "wardha",
        "lat": "17.6599188",
        "lng": "75.9063906"
    },
    {
        "state": "maharashtra",
        "city": "yavatmal",
        "lat": "17.6599188",
        "lng": "75.9063906"
    },
    {
        "state": "maharashtra",
        "city": "dohad",
        "lat": "17.6599188",
        "lng": "75.9063906"
    },
    {
        "state": "manipur",
        "city": "imphal east",
        "lat": "24.8170111",
        "lng": "93.9368439"
    },
    {
        "state": "manipur",
        "city": "imphal west",
        "lat": "24.8170111",
        "lng": "93.9368439"
    },
    {
        "state": "manipur",
        "city": "thoubal",
        "lat": "24.8170111",
        "lng": "93.9368439"
    },
    {
        "state": "meghalaya",
        "city": "shilong",
        "lat": "25.3681768",
        "lng": "91.7538817"
    },
    {
        "state": "mizoram",
        "city": "aizawl",
        "lat": "23.7307175",
        "lng": "92.7173106"
    },
    {
        "state": "nagaland",
        "city": "dimapur",
        "lat": "25.9091406",
        "lng": "93.7265605"
    },
    {
        "state": "nagaland",
        "city": "kohima",
        "lat": "25.9091406",
        "lng": "93.7265605"
    },
    {
        "state": "orissa",
        "city": "angul",
        "lat": "18.813487",
        "lng": "82.7123327"
    },
    {
        "state": "orissa",
        "city": "balasore",
        "lat": "18.813487",
        "lng": "82.7123327"
    },
    {
        "state": "orissa",
        "city": "baleswar",
        "lat": "18.813487",
        "lng": "82.7123327"
    },
    {
        "state": "orissa",
        "city": "bargarh",
        "lat": "18.813487",
        "lng": "82.7123327"
    },
    {
        "state": "orissa",
        "city": "berhampur",
        "lat": "18.813487",
        "lng": "82.7123327"
    },
    {
        "state": "orissa",
        "city": "bhubaneshwar",
        "lat": "18.813487",
        "lng": "82.7123327"
    },
    {
        "state": "orissa",
        "city": "bhubaneswar",
        "lat": "18.813487",
        "lng": "82.7123327"
    },
    {
        "state": "orissa",
        "city": "bolangir",
        "lat": "18.813487",
        "lng": "82.7123327"
    },
    {
        "state": "orissa",
        "city": "cuttack",
        "lat": "18.813487",
        "lng": "82.7123327"
    },
    {
        "state": "orissa",
        "city": "dhenkanal",
        "lat": "18.813487",
        "lng": "82.7123327"
    },
    {
        "state": "orissa",
        "city": "ganjam",
        "lat": "18.813487",
        "lng": "82.7123327"
    },
    {
        "state": "orissa",
        "city": "jagatsinghpur",
        "lat": "18.813487",
        "lng": "82.7123327"
    },
    {
        "state": "orissa",
        "city": "jajapur",
        "lat": "18.813487",
        "lng": "82.7123327"
    },
    {
        "state": "orissa",
        "city": "jharsuguda",
        "lat": "18.813487",
        "lng": "82.7123327"
    },
    {
        "state": "orissa",
        "city": "kendrapara",
        "lat": "18.813487",
        "lng": "82.7123327"
    },
    {
        "state": "orissa",
        "city": "kendujhar",
        "lat": "18.813487",
        "lng": "82.7123327"
    },
    {
        "state": "orissa",
        "city": "khurdha",
        "lat": "18.813487",
        "lng": "82.7123327"
    },
    {
        "state": "orissa",
        "city": "koraput",
        "lat": "18.813487",
        "lng": "82.7123327"
    },
    {
        "state": "orissa",
        "city": "mayurbhanj",
        "lat": "18.813487",
        "lng": "82.7123327"
    },
    {
        "state": "orissa",
        "city": "puri",
        "lat": "18.813487",
        "lng": "82.7123327"
    },
    {
        "state": "orissa",
        "city": "rourkela",
        "lat": "18.813487",
        "lng": "82.7123327"
    },
    {
        "state": "orissa",
        "city": "sambalpur",
        "lat": "18.813487",
        "lng": "82.7123327"
    },
    {
        "state": "orissa",
        "city": "sundargarh",
        "lat": "18.813487",
        "lng": "82.7123327"
    },
    {
        "state": "pondicherry",
        "city": "pondicherry",
        "lat": "10.9254398",
        "lng": "79.8380056"
    },
    {
        "state": "punjab",
        "city": "amritsar",
        "lat": "30.900965",
        "lng": "75.8572758"
    },
    {
        "state": "punjab",
        "city": "anandpur sahib",
        "lat": "30.900965",
        "lng": "75.8572758"
    },
    {
        "state": "punjab",
        "city": "barnala",
        "lat": "30.900965",
        "lng": "75.8572758"
    },
    {
        "state": "punjab",
        "city": "batala",
        "lat": "30.900965",
        "lng": "75.8572758"
    },
    {
        "state": "punjab",
        "city": "bathinda",
        "lat": "30.900965",
        "lng": "75.8572758"
    },
    {
        "state": "punjab",
        "city": "bhatinda",
        "lat": "30.900965",
        "lng": "75.8572758"
    },
    {
        "state": "punjab",
        "city": "dhuri",
        "lat": "30.900965",
        "lng": "75.8572758"
    },
    {
        "state": "punjab",
        "city": "faridkot",
        "lat": "30.900965",
        "lng": "75.8572758"
    },
    {
        "state": "punjab",
        "city": "fatehgarh sahib",
        "lat": "30.900965",
        "lng": "75.8572758"
    },
    {
        "state": "punjab",
        "city": "firozpur",
        "lat": "30.900965",
        "lng": "75.8572758"
    },
    {
        "state": "punjab",
        "city": "gurdaspur",
        "lat": "30.900965",
        "lng": "75.8572758"
    },
    {
        "state": "punjab",
        "city": "hoshiarpur",
        "lat": "30.900965",
        "lng": "75.8572758"
    },
    {
        "state": "punjab",
        "city": "jalandhar",
        "lat": "30.900965",
        "lng": "75.8572758"
    },
    {
        "state": "punjab",
        "city": "kapurthala",
        "lat": "30.900965",
        "lng": "75.8572758"
    },
    {
        "state": "punjab",
        "city": "khanna",
        "lat": "30.900965",
        "lng": "75.8572758"
    },
    {
        "state": "punjab",
        "city": "ludhiana",
        "lat": "30.900965",
        "lng": "75.8572758"
    },
    {
        "state": "punjab",
        "city": "mansa",
        "lat": "30.900965",
        "lng": "75.8572758"
    },
    {
        "state": "punjab",
        "city": "moga",
        "lat": "30.900965",
        "lng": "75.8572758"
    },
    {
        "state": "punjab",
        "city": "mohali",
        "lat": "30.900965",
        "lng": "75.8572758"
    },
    {
        "state": "punjab",
        "city": "mukerian",
        "lat": "30.900965",
        "lng": "75.8572758"
    },
    {
        "state": "punjab",
        "city": "muktsar",
        "lat": "30.900965",
        "lng": "75.8572758"
    },
    {
        "state": "punjab",
        "city": "nakodar",
        "lat": "30.900965",
        "lng": "75.8572758"
    },
    {
        "state": "punjab",
        "city": "nawanshahr",
        "lat": "30.900965",
        "lng": "75.8572758"
    },
    {
        "state": "punjab",
        "city": "pathankot",
        "lat": "30.900965",
        "lng": "75.8572758"
    },
    {
        "state": "punjab",
        "city": "patiala",
        "lat": "30.900965",
        "lng": "75.8572758"
    },
    {
        "state": "punjab",
        "city": "phagwara",
        "lat": "30.900965",
        "lng": "75.8572758"
    },
    {
        "state": "punjab",
        "city": "rajpura",
        "lat": "30.900965",
        "lng": "75.8572758"
    },
    {
        "state": "punjab",
        "city": "ropar",
        "lat": "30.900965",
        "lng": "75.8572758"
    },
    {
        "state": "punjab",
        "city": "rupnagar",
        "lat": "30.900965",
        "lng": "75.8572758"
    },
    {
        "state": "punjab",
        "city": "sangrur",
        "lat": "30.900965",
        "lng": "75.8572758"
    },
    {
        "state": "punjab",
        "city": "sunam",
        "lat": "30.900965",
        "lng": "75.8572758"
    },
    {
        "state": "punjab",
        "city": "tarn taran",
        "lat": "30.900965",
        "lng": "75.8572758"
    },
    {
        "state": "punjab",
        "city": "zirakpur",
        "lat": "30.900965",
        "lng": "75.8572758"
    },
    {
        "state": "rajasthan",
        "city": "ajmer",
        "lat": "26.9124336",
        "lng": "75.7872709"
    },
    {
        "state": "rajasthan",
        "city": "alwar",
        "lat": "26.9124336",
        "lng": "75.7872709"
    },
    {
        "state": "rajasthan",
        "city": "barmer",
        "lat": "26.9124336",
        "lng": "75.7872709"
    },
    {
        "state": "rajasthan",
        "city": "bharatpur",
        "lat": "26.9124336",
        "lng": "75.7872709"
    },
    {
        "state": "rajasthan",
        "city": "bhilwara",
        "lat": "26.9124336",
        "lng": "75.7872709"
    },
    {
        "state": "rajasthan",
        "city": "bhinmal",
        "lat": "26.9124336",
        "lng": "75.7872709"
    },
    {
        "state": "rajasthan",
        "city": "bhiwadi",
        "lat": "26.9124336",
        "lng": "75.7872709"
    },
    {
        "state": "rajasthan",
        "city": "bikaner",
        "lat": "26.9124336",
        "lng": "75.7872709"
    },
    {
        "state": "rajasthan",
        "city": "bundi",
        "lat": "26.9124336",
        "lng": "75.7872709"
    },
    {
        "state": "rajasthan",
        "city": "chittorgarh",
        "lat": "26.9124336",
        "lng": "75.7872709"
    },
    {
        "state": "rajasthan",
        "city": "chomu",
        "lat": "26.9124336",
        "lng": "75.7872709"
    },
    {
        "state": "rajasthan",
        "city": "churu",
        "lat": "26.9124336",
        "lng": "75.7872709"
    },
    {
        "state": "rajasthan",
        "city": "dausa",
        "lat": "26.9124336",
        "lng": "75.7872709"
    },
    {
        "state": "rajasthan",
        "city": "dungarpur",
        "lat": "26.9124336",
        "lng": "75.7872709"
    },
    {
        "state": "rajasthan",
        "city": "ganganagar",
        "lat": "26.9124336",
        "lng": "75.7872709"
    },
    {
        "state": "rajasthan",
        "city": "hanumangarh",
        "lat": "26.9124336",
        "lng": "75.7872709"
    },
    {
        "state": "rajasthan",
        "city": "jaipur",
        "lat": "26.9124336",
        "lng": "75.7872709"
    },
    {
        "state": "rajasthan",
        "city": "jalore",
        "lat": "26.9124336",
        "lng": "75.7872709"
    },
    {
        "state": "rajasthan",
        "city": "jhalawar",
        "lat": "26.9124336",
        "lng": "75.7872709"
    },
    {
        "state": "rajasthan",
        "city": "jhunjhunu",
        "lat": "26.9124336",
        "lng": "75.7872709"
    },
    {
        "state": "rajasthan",
        "city": "jodhpur",
        "lat": "26.9124336",
        "lng": "75.7872709"
    },
    {
        "state": "rajasthan",
        "city": "kekri",
        "lat": "26.9124336",
        "lng": "75.7872709"
    },
    {
        "state": "rajasthan",
        "city": "kota",
        "lat": "26.9124336",
        "lng": "75.7872709"
    },
    {
        "state": "rajasthan",
        "city": "nagaur",
        "lat": "26.9124336",
        "lng": "75.7872709"
    },
    {
        "state": "rajasthan",
        "city": "pali",
        "lat": "26.9124336",
        "lng": "75.7872709"
    },
    {
        "state": "rajasthan",
        "city": "phalodi",
        "lat": "26.9124336",
        "lng": "75.7872709"
    },
    {
        "state": "rajasthan",
        "city": "pratapgarh",
        "lat": "26.9124336",
        "lng": "75.7872709"
    },
    {
        "state": "rajasthan",
        "city": "rajsamand",
        "lat": "26.9124336",
        "lng": "75.7872709"
    },
    {
        "state": "rajasthan",
        "city": "sawai madhopur",
        "lat": "26.9124336",
        "lng": "75.7872709"
    },
    {
        "state": "rajasthan",
        "city": "sikar",
        "lat": "26.9124336",
        "lng": "75.7872709"
    },
    {
        "state": "rajasthan",
        "city": "sirohi",
        "lat": "26.9124336",
        "lng": "75.7872709"
    },
    {
        "state": "rajasthan",
        "city": "sri ganganagar",
        "lat": "26.9124336",
        "lng": "75.7872709"
    },
    {
        "state": "rajasthan",
        "city": "sujangarh",
        "lat": "26.9124336",
        "lng": "75.7872709"
    },
    {
        "state": "rajasthan",
        "city": "tonk",
        "lat": "26.9124336",
        "lng": "75.7872709"
    },
    {
        "state": "rajasthan",
        "city": "udaipur",
        "lat": "26.9124336",
        "lng": "75.7872709"
    },
    {
        "state": "sikkim",
        "city": "gangtok",
        "lat": "27.3516407",
        "lng": "88.3239309"
    },
    {
        "state": "tamil nadu",
        "city": "attur",
        "lat": "13.0826802",
        "lng": "80.2707184"
    },
    {
        "state": "tamil nadu",
        "city": "chennai",
        "lat": "13.0826802",
        "lng": "80.2707184"
    },
    {
        "state": "tamil nadu",
        "city": "chidambaram",
        "lat": "13.0826802",
        "lng": "80.2707184"
    },
    {
        "state": "tamil nadu",
        "city": "coimbatore",
        "lat": "13.0826802",
        "lng": "80.2707184"
    },
    {
        "state": "tamil nadu",
        "city": "cuddalore",
        "lat": "13.0826802",
        "lng": "80.2707184"
    },
    {
        "state": "tamil nadu",
        "city": "dharmapuri",
        "lat": "13.0826802",
        "lng": "80.2707184"
    },
    {
        "state": "tamil nadu",
        "city": "dindigul",
        "lat": "13.0826802",
        "lng": "80.2707184"
    },
    {
        "state": "tamil nadu",
        "city": "erode",
        "lat": "13.0826802",
        "lng": "80.2707184"
    },
    {
        "state": "tamil nadu",
        "city": "hosur",
        "lat": "13.0826802",
        "lng": "80.2707184"
    },
    {
        "state": "tamil nadu",
        "city": "kanchipuram",
        "lat": "13.0826802",
        "lng": "80.2707184"
    },
    {
        "state": "tamil nadu",
        "city": "kanyakumari",
        "lat": "13.0826802",
        "lng": "80.2707184"
    },
    {
        "state": "tamil nadu",
        "city": "karur",
        "lat": "13.0826802",
        "lng": "80.2707184"
    },
    {
        "state": "tamil nadu",
        "city": "krishnagiri",
        "lat": "13.0826802",
        "lng": "80.2707184"
    },
    {
        "state": "tamil nadu",
        "city": "kumbakonam",
        "lat": "13.0826802",
        "lng": "80.2707184"
    },
    {
        "state": "tamil nadu",
        "city": "madurai",
        "lat": "13.0826802",
        "lng": "80.2707184"
    },
    {
        "state": "tamil nadu",
        "city": "nagercoil",
        "lat": "13.0826802",
        "lng": "80.2707184"
    },
    {
        "state": "tamil nadu",
        "city": "namakkal",
        "lat": "13.0826802",
        "lng": "80.2707184"
    },
    {
        "state": "tamil nadu",
        "city": "nilgiris",
        "lat": "13.0826802",
        "lng": "80.2707184"
    },
    {
        "state": "tamil nadu",
        "city": "perambalur",
        "lat": "13.0826802",
        "lng": "80.2707184"
    },
    {
        "state": "tamil nadu",
        "city": "pollachi",
        "lat": "13.0826802",
        "lng": "80.2707184"
    },
    {
        "state": "tamil nadu",
        "city": "ramanathapuram",
        "lat": "13.0826802",
        "lng": "80.2707184"
    },
    {
        "state": "tamil nadu",
        "city": "salem",
        "lat": "13.0826802",
        "lng": "80.2707184"
    },
    {
        "state": "tamil nadu",
        "city": "sivagangai",
        "lat": "13.0826802",
        "lng": "80.2707184"
    },
    {
        "state": "tamil nadu",
        "city": "thanjavur",
        "lat": "13.0826802",
        "lng": "80.2707184"
    },
    {
        "state": "tamil nadu",
        "city": "theni",
        "lat": "13.0826802",
        "lng": "80.2707184"
    },
    {
        "state": "tamil nadu",
        "city": "thoothukudi",
        "lat": "13.0826802",
        "lng": "80.2707184"
    },
    {
        "state": "tamil nadu",
        "city": "tiruchengodu",
        "lat": "13.0826802",
        "lng": "80.2707184"
    },
    {
        "state": "tamil nadu",
        "city": "tiruchirapalli",
        "lat": "13.0826802",
        "lng": "80.2707184"
    },
    {
        "state": "tamil nadu",
        "city": "tirunelveli",
        "lat": "13.0826802",
        "lng": "80.2707184"
    },
    {
        "state": "tamil nadu",
        "city": "tiruppur",
        "lat": "13.0826802",
        "lng": "80.2707184"
    },
    {
        "state": "tamil nadu",
        "city": "tiruvallur",
        "lat": "13.0826802",
        "lng": "80.2707184"
    },
    {
        "state": "tamil nadu",
        "city": "tiruvannamalai",
        "lat": "13.0826802",
        "lng": "80.2707184"
    },
    {
        "state": "tamil nadu",
        "city": "trichy",
        "lat": "13.0826802",
        "lng": "80.2707184"
    },
    {
        "state": "tamil nadu",
        "city": "vellore",
        "lat": "13.0826802",
        "lng": "80.2707184"
    },
    {
        "state": "tamil nadu",
        "city": "viluppuram",
        "lat": "13.0826802",
        "lng": "80.2707184"
    },
    {
        "state": "telangana",
        "city": "karimnagar",
        "lat": "17.385044",
        "lng": "78.486671"
    },
    {
        "state": "telangana",
        "city": "mahabub nagar",
        "lat": "17.385044",
        "lng": "78.486671"
    },
    {
        "state": "telangana",
        "city": "medak",
        "lat": "17.385044",
        "lng": "78.486671"
    },
    {
        "state": "telangana",
        "city": "nirmal",
        "lat": "17.385044",
        "lng": "78.486671"
    },
    {
        "state": "telangana",
        "city": "nizamabad",
        "lat": "17.385044",
        "lng": "78.486671"
    },
    {
        "state": "telangana",
        "city": "rangareddy",
        "lat": "17.385044",
        "lng": "78.486671"
    },
    {
        "state": "telangana",
        "city": "sanga reddy",
        "lat": "17.385044",
        "lng": "78.486671"
    },
    {
        "state": "telangana",
        "city": "secunderabad",
        "lat": "17.385044",
        "lng": "78.486671"
    },
    {
        "state": "telangana",
        "city": "warangal",
        "lat": "17.385044",
        "lng": "78.486671"
    },
    {
        "state": "uttar pradesh",
        "city": "agra",
        "lat": "28.9844618",
        "lng": "77.7064137"
    },
    {
        "state": "uttar pradesh",
        "city": "aligarh",
        "lat": "28.9844618",
        "lng": "77.7064137"
    },
    {
        "state": "uttar pradesh",
        "city": "allahabad",
        "lat": "28.9844618",
        "lng": "77.7064137"
    },
    {
        "state": "uttar pradesh",
        "city": "ambedkar nagar",
        "lat": "28.9844618",
        "lng": "77.7064137"
    },
    {
        "state": "uttar pradesh",
        "city": "azamgarh",
        "lat": "28.9844618",
        "lng": "77.7064137"
    },
    {
        "state": "uttar pradesh",
        "city": "badaun",
        "lat": "28.9844618",
        "lng": "77.7064137"
    },
    {
        "state": "uttar pradesh",
        "city": "baghpat",
        "lat": "28.9844618",
        "lng": "77.7064137"
    },
    {
        "state": "uttar pradesh",
        "city": "bahraich",
        "lat": "28.9844618",
        "lng": "77.7064137"
    },
    {
        "state": "uttar pradesh",
        "city": "balrampur",
        "lat": "28.9844618",
        "lng": "77.7064137"
    },
    {
        "state": "uttar pradesh",
        "city": "banda",
        "lat": "28.9844618",
        "lng": "77.7064137"
    },
    {
        "state": "uttar pradesh",
        "city": "bareilly",
        "lat": "28.9844618",
        "lng": "77.7064137"
    },
    {
        "state": "uttar pradesh",
        "city": "basti",
        "lat": "28.9844618",
        "lng": "77.7064137"
    },
    {
        "state": "uttar pradesh",
        "city": "bijnor",
        "lat": "28.9844618",
        "lng": "77.7064137"
    },
    {
        "state": "uttar pradesh",
        "city": "bulandshahr",
        "lat": "28.9844618",
        "lng": "77.7064137"
    },
    {
        "state": "uttar pradesh",
        "city": "chandauli",
        "lat": "28.9844618",
        "lng": "77.7064137"
    },
    {
        "state": "uttar pradesh",
        "city": "deoria",
        "lat": "28.9844618",
        "lng": "77.7064137"
    },
    {
        "state": "uttar pradesh",
        "city": "etah",
        "lat": "28.9844618",
        "lng": "77.7064137"
    },
    {
        "state": "uttar pradesh",
        "city": "etawah",
        "lat": "28.9844618",
        "lng": "77.7064137"
    },
    {
        "state": "uttar pradesh",
        "city": "faizabad",
        "lat": "28.9844618",
        "lng": "77.7064137"
    },
    {
        "state": "uttar pradesh",
        "city": "farrukhabad",
        "lat": "28.9844618",
        "lng": "77.7064137"
    },
    {
        "state": "uttar pradesh",
        "city": "firozabad",
        "lat": "28.9844618",
        "lng": "77.7064137"
    },
    {
        "state": "uttar pradesh",
        "city": "gautam buddha nagar",
        "lat": "28.9844618",
        "lng": "77.7064137"
    },
    {
        "state": "uttar pradesh",
        "city": "ghaziabad",
        "lat": "28.9844618",
        "lng": "77.7064137"
    },
    {
        "state": "uttar pradesh",
        "city": "ghazipur",
        "lat": "28.9844618",
        "lng": "77.7064137"
    },
    {
        "state": "uttar pradesh",
        "city": "gonda",
        "lat": "28.9844618",
        "lng": "77.7064137"
    },
    {
        "state": "uttar pradesh",
        "city": "gorakhpur",
        "lat": "28.9844618",
        "lng": "77.7064137"
    },
    {
        "state": "uttar pradesh",
        "city": "hapur",
        "lat": "28.9844618",
        "lng": "77.7064137"
    },
    {
        "state": "uttar pradesh",
        "city": "hardoi",
        "lat": "28.9844618",
        "lng": "77.7064137"
    },
    {
        "state": "uttar pradesh",
        "city": "hathras",
        "lat": "28.9844618",
        "lng": "77.7064137"
    },
    {
        "state": "uttar pradesh",
        "city": "jalaun",
        "lat": "28.9844618",
        "lng": "77.7064137"
    },
    {
        "state": "uttar pradesh",
        "city": "jaunpur",
        "lat": "28.9844618",
        "lng": "77.7064137"
    },
    {
        "state": "uttar pradesh",
        "city": "jhansi",
        "lat": "28.9844618",
        "lng": "77.7064137"
    },
    {
        "state": "uttar pradesh",
        "city": "jyotiba phule nagar",
        "lat": "28.9844618",
        "lng": "77.7064137"
    },
    {
        "state": "uttar pradesh",
        "city": "kanpur",
        "lat": "28.9844618",
        "lng": "77.7064137"
    },
    {
        "state": "uttar pradesh",
        "city": "kushinagar",
        "lat": "28.9844618",
        "lng": "77.7064137"
    },
    {
        "state": "uttar pradesh",
        "city": "lakhimpur",
        "lat": "28.9844618",
        "lng": "77.7064137"
    },
    {
        "state": "uttar pradesh",
        "city": "lucknow",
        "lat": "28.9844618",
        "lng": "77.7064137"
    },
    {
        "state": "uttar pradesh",
        "city": "mahoba",
        "lat": "28.9844618",
        "lng": "77.7064137"
    },
    {
        "state": "uttar pradesh",
        "city": "mainpuri",
        "lat": "28.9844618",
        "lng": "77.7064137"
    },
    {
        "state": "uttar pradesh",
        "city": "mathura",
        "lat": "28.9844618",
        "lng": "77.7064137"
    },
    {
        "state": "uttar pradesh",
        "city": "meerut",
        "lat": "28.9844618",
        "lng": "77.7064137"
    },
    {
        "state": "uttar pradesh",
        "city": "modinagar",
        "lat": "28.9844618",
        "lng": "77.7064137"
    },
    {
        "state": "uttar pradesh",
        "city": "moradabad",
        "lat": "28.9844618",
        "lng": "77.7064137"
    },
    {
        "state": "uttar pradesh",
        "city": "muzaffarnagar",
        "lat": "28.9844618",
        "lng": "77.7064137"
    },
    {
        "state": "uttar pradesh",
        "city": "noida",
        "lat": "28.9844618",
        "lng": "77.7064137"
    },
    {
        "state": "uttar pradesh",
        "city": "pilibhit",
        "lat": "28.9844618",
        "lng": "77.7064137"
    },
    {
        "state": "uttar pradesh",
        "city": "rae bareli",
        "lat": "28.9844618",
        "lng": "77.7064137"
    },
    {
        "state": "uttar pradesh",
        "city": "rampur",
        "lat": "28.9844618",
        "lng": "77.7064137"
    },
    {
        "state": "uttar pradesh",
        "city": "saharanpur",
        "lat": "28.9844618",
        "lng": "77.7064137"
    },
    {
        "state": "uttar pradesh",
        "city": "sambhal",
        "lat": "28.9844618",
        "lng": "77.7064137"
    },
    {
        "state": "uttar pradesh",
        "city": "sant kabir nagar",
        "lat": "28.9844618",
        "lng": "77.7064137"
    },
    {
        "state": "uttar pradesh",
        "city": "shahabad",
        "lat": "28.9844618",
        "lng": "77.7064137"
    },
    {
        "state": "uttar pradesh",
        "city": "shahjahanpur",
        "lat": "28.9844618",
        "lng": "77.7064137"
    },
    {
        "state": "uttar pradesh",
        "city": "shamli",
        "lat": "28.9844618",
        "lng": "77.7064137"
    },
    {
        "state": "uttar pradesh",
        "city": "sitapur",
        "lat": "28.9844618",
        "lng": "77.7064137"
    },
    {
        "state": "uttar pradesh",
        "city": "sonbhadra",
        "lat": "28.9844618",
        "lng": "77.7064137"
    },
    {
        "state": "uttar pradesh",
        "city": "sultanpur",
        "lat": "28.9844618",
        "lng": "77.7064137"
    },
    {
        "state": "uttar pradesh",
        "city": "unnao",
        "lat": "28.9844618",
        "lng": "77.7064137"
    },
    {
        "state": "uttar pradesh",
        "city": "varanasi",
        "lat": "28.9844618",
        "lng": "77.7064137"
    },
    {
        "state": "uttarakhand",
        "city": "dehradun",
        "lat": "30.3164945",
        "lng": "78.0321918"
    },
    {
        "state": "uttarakhand",
        "city": "haldwani",
        "lat": "30.3164945",
        "lng": "78.0321918"
    },
    {
        "state": "uttarakhand",
        "city": "haridwar",
        "lat": "30.3164945",
        "lng": "78.0321918"
    },
    {
        "state": "uttarakhand",
        "city": "kashipur",
        "lat": "30.3164945",
        "lng": "78.0321918"
    },
    {
        "state": "uttarakhand",
        "city": "nainital",
        "lat": "30.3164945",
        "lng": "78.0321918"
    },
    {
        "state": "uttarakhand",
        "city": "ramnagar",
        "lat": "30.3164945",
        "lng": "78.0321918"
    },
    {
        "state": "uttarakhand",
        "city": "rishikesh",
        "lat": "30.3164945",
        "lng": "78.0321918"
    },
    {
        "state": "uttarakhand",
        "city": "roorkee",
        "lat": "30.3164945",
        "lng": "78.0321918"
    },
    {
        "state": "uttarakhand",
        "city": "rudrapur",
        "lat": "30.3164945",
        "lng": "78.0321918"
    },
    {
        "state": "uttarakhand",
        "city": "udham singh nagar",
        "lat": "30.3164945",
        "lng": "78.0321918"
    },
    {
        "state": "west bengal",
        "city": "asansol",
        "lat": "25.3715308",
        "lng": "88.556531"
    },
    {
        "state": "west bengal",
        "city": "bankura",
        "lat": "25.3715308",
        "lng": "88.556531"
    },
    {
        "state": "west bengal",
        "city": "barasat",
        "lat": "25.3715308",
        "lng": "88.556531"
    },
    {
        "state": "west bengal",
        "city": "bardhaman",
        "lat": "25.3715308",
        "lng": "88.556531"
    },
    {
        "state": "west bengal",
        "city": "barrackpore",
        "lat": "25.3715308",
        "lng": "88.556531"
    },
    {
        "state": "west bengal",
        "city": "behrampur",
        "lat": "25.3715308",
        "lng": "88.556531"
    },
    {
        "state": "west bengal",
        "city": "birbhum",
        "lat": "25.3715308",
        "lng": "88.556531"
    },
    {
        "state": "west bengal",
        "city": "burdwan",
        "lat": "25.3715308",
        "lng": "88.556531"
    },
    {
        "state": "west bengal",
        "city": "cooch behar",
        "lat": "25.3715308",
        "lng": "88.556531"
    },
    {
        "state": "west bengal",
        "city": "darjeeling",
        "lat": "25.3715308",
        "lng": "88.556531"
    },
    {
        "state": "west bengal",
        "city": "durgapur",
        "lat": "25.3715308",
        "lng": "88.556531"
    },
    {
        "state": "west bengal",
        "city": "haldia",
        "lat": "25.3715308",
        "lng": "88.556531"
    },
    {
        "state": "west bengal",
        "city": "hooghly",
        "lat": "25.3715308",
        "lng": "88.556531"
    },
    {
        "state": "west bengal",
        "city": "howrah",
        "lat": "25.3715308",
        "lng": "88.556531"
    },
    {
        "state": "west bengal",
        "city": "jalpaiguri",
        "lat": "25.3715308",
        "lng": "88.556531"
    },
    {
        "state": "west bengal",
        "city": "kharagpur",
        "lat": "25.3715308",
        "lng": "88.556531"
    },
    {
        "state": "west bengal",
        "city": "kolkata",
        "lat": "25.3715308",
        "lng": "88.556531"
    },
    {
        "state": "west bengal",
        "city": "malda",
        "lat": "25.3715308",
        "lng": "88.556531"
    },
    {
        "state": "west bengal",
        "city": "midnapore",
        "lat": "25.3715308",
        "lng": "88.556531"
    },
    {
        "state": "west bengal",
        "city": "murshidabad",
        "lat": "25.3715308",
        "lng": "88.556531"
    },
    {
        "state": "west bengal",
        "city": "nadia",
        "lat": "25.3715308",
        "lng": "88.556531"
    },
    {
        "state": "west bengal",
        "city": "north 24 parganas",
        "lat": "25.3715308",
        "lng": "88.556531"
    },
    {
        "state": "west bengal",
        "city": "siliguri",
        "lat": "25.3715308",
        "lng": "88.556531"
    },
    {
        "state": "west bengal",
        "city": "south 24 parganas",
        "lat": "25.3715308",
        "lng": "88.556531"
    }
]